Time,header.seq,header.stamp.secs,header.stamp.nsecs,header.frame_id,pose.position.x,pose.position.y,pose.position.z,pose.orientation.x,pose.orientation.y,pose.orientation.z,pose.orientation.w
1676963310.6861699,0,1676963310,685866919,map,0.025028830394148827,9.996408462524414,10.176321983337402,-0.0030660754748223357,0.0012448391924960427,-0.716794354171877,-0.6972768361469484
1676963310.7213004,1,1676963310,721025571,map,0.02479413151741028,9.996878623962402,10.176441192626953,-0.0031243684352618866,0.001191111262585828,-0.716750929088476,-0.6973212727547136
1676963310.7526393,2,1676963310,752461332,map,0.024600470438599586,9.997321128845215,10.17654037475586,-0.003118583286395385,0.0011253886853252796,-0.7167838602651423,-0.6972876672284711
1676963310.785118,3,1676963310,784846806,map,0.024418193846940994,9.997722625732422,10.176680564880371,-0.0031709057176894373,0.0011379048999259358,-0.7167816949707999,-0.6972895796417223
1676963310.8207176,4,1676963310,820561104,map,0.024165155366063118,9.99815845489502,10.176889419555664,-0.0031028484355119634,0.0010003922455805402,-0.716799264938273,-0.6972720096742493
1676963310.8540127,5,1676963310,852780423,map,0.023971734568476677,9.998385429382324,10.177002906799316,-0.0030501608412882345,0.00106820891205841,-0.7167744615179242,-0.6972976560315682
1676963310.8888526,6,1676963310,888635821,map,0.023699473589658737,9.998693466186523,10.177112579345703,-0.003035759049125097,0.0011342461912757108,-0.7167985497589373,-0.697272893440979
1676963310.929678,7,1676963310,928965389,map,0.023324042558670044,9.999093055725098,10.177214622497559,-0.003042118778074813,0.0011561722660328685,-0.7167770272073274,-0.697294921754771
1676963310.9647436,8,1676963310,964542709,map,0.022965803742408752,9.999384880065918,10.177265167236328,-0.002972542562989677,0.0011911274792443373,-0.7167223871109555,-0.6973513320187803
1676963310.9978173,9,1676963310,997277836,map,0.02256879210472107,9.999632835388184,10.177309036254883,-0.002998252469853576,0.0012169167407214483,-0.7167670930634245,-0.6973051930734621
1676963311.038375,10,1676963311,37795999,map,0.022126158699393272,9.999847412109375,10.177352905273438,-0.0029808769376465792,0.0011930591549223772,-0.7168129317124471,-0.6972581743126811
1676963311.0648293,11,1676963311,64535783,map,0.02166784554719925,10.000039100646973,10.177412033081055,-0.003126220920962842,0.0011322107125195998,-0.716850088769221,-0.6972194999693608
1676963311.0970278,12,1676963311,96688746,map,0.02119872346520424,10.000208854675293,10.177465438842773,-0.0031317689114884056,0.0010033094331147764,-0.7168204075097018,-0.6972501084595474
1676963311.1330433,13,1676963311,132892417,map,0.02065414749085903,10.000436782836914,10.177529335021973,-0.0030849270522259123,0.001063449281626965,-0.7167864490036031,-0.6972852470774044
1676963311.166415,14,1676963311,165749799,map,0.02023931033909321,10.000569343566895,10.177533149719238,-0.0031228485145374622,0.0008234369734282184,-0.7167697469977916,-0.6973025391390949
1676963311.197383,15,1676963311,196920534,map,0.019821899011731148,10.000680923461914,10.17746639251709,-0.0030764834414987487,0.0008267552968858797,-0.7167792359656072,-0.6972929658775824
1676963311.232792,16,1676963311,232621850,map,0.019425978884100914,10.000776290893555,10.177347183227539,-0.0031303443973995757,0.0008012947314363152,-0.7168437153754728,-0.6972264634189883
1676963311.2648447,17,1676963311,264595420,map,0.019060449674725533,10.000844955444336,10.177178382873535,-0.003142288913049239,0.000769830956570044,-0.7168428684872354,-0.6972273946009225
1676963311.2976434,18,1676963311,296874220,map,0.018712345510721207,10.000863075256348,10.177033424377441,-0.003108269079993296,0.0006892824844832172,-0.7168056976010269,-0.6972657455988894
1676963311.3337638,19,1676963311,333171596,map,0.018340693786740303,10.000951766967773,10.176857948303223,-0.0030270607463094706,0.0006078155074438813,-0.7167863107092565,-0.6972860597213272
1676963311.3653858,20,1676963311,364971592,map,0.018071066588163376,10.001058578491211,10.176692008972168,-0.0027957555489591442,0.0004896778910678453,-0.7167246037717694,-0.6973505483508159
1676963311.396861,21,1676963311,396613604,map,0.017835164442658424,10.001246452331543,10.176583290100098,-0.0028087363667101822,0.000547972662504793,-0.716760088125493,-0.6973139681790309
1676963311.4327264,22,1676963311,432558415,map,0.017613040283322334,10.001447677612305,10.176473617553711,-0.0027256025312030786,0.0006058239865336781,-0.7167607321820219,-0.6973135770035932
1676963311.4646013,23,1676963311,464428672,map,0.017434831708669662,10.001643180847168,10.176309585571289,-0.0026685491161636786,0.0004940387727997067,-0.7168049040548948,-0.69726856219375
1676963311.496968,24,1676963311,496737707,map,0.017297226935625076,10.001876831054688,10.176158905029297,-0.002735243375845755,0.00048159672677426234,-0.7168343014817311,-0.6972379846551554
1676963311.5339415,25,1676963311,533502004,map,0.017130404710769653,10.002169609069824,10.17596435546875,-0.0026165808994968575,0.0005200682383861049,-0.7168609435583461,-0.6972110054037524
1676963311.5688307,26,1676963311,568576234,map,0.016988292336463928,10.002418518066406,10.175796508789062,-0.002700249390826379,0.0005618610369058946,-0.7168755105628627,-0.6971958483433567
1676963311.600794,27,1676963311,600595339,map,0.016871770843863487,10.002669334411621,10.175583839416504,-0.002714248976931266,0.0006450346320376676,-0.7168795698312098,-0.6971915361939184
1676963311.636935,28,1676963311,636775537,map,0.016761232167482376,10.002902030944824,10.175357818603516,-0.002765220651121383,0.0007137395927387427,-0.7168162975334273,-0.6972563257782473
1676963311.6692488,29,1676963311,668735893,map,0.01665310561656952,10.003097534179688,10.175137519836426,-0.002778328814916652,0.000840591234680533,-0.7167676271430204,-0.6973061762804125
1676963311.7014859,30,1676963311,700935236,map,0.016524335369467735,10.003253936767578,10.174887657165527,-0.002856814643286413,0.0009135871067594966,-0.7167993597686821,-0.6972731792492955
1676963311.7366726,31,1676963311,736541096,map,0.016321023926138878,10.00345230102539,10.174564361572266,-0.002832177505426018,0.0009602525584119141,-0.7167466669884203,-0.6973273893161036
1676963311.768846,32,1676963311,768649134,map,0.016108667477965355,10.00365924835205,10.174311637878418,-0.0027336128196439905,0.0009218353767219802,-0.7166366307865816,-0.6974407129721263
1676963311.8006473,33,1676963311,800465529,map,0.015896273776888847,10.00391960144043,10.174033164978027,-0.0027655552740495017,0.0009452547834690521,-0.7166376864334278,-0.697439488737886
1676963311.8372438,34,1676963311,836861379,map,0.015691112726926804,10.0042142868042,10.173773765563965,-0.002692991654121965,0.0009110021549295376,-0.7166159840991673,-0.6974622025965108
1676963311.869545,35,1676963311,869074973,map,0.015495418570935726,10.004565238952637,10.173510551452637,-0.00285238263874769,0.0009321070246852406,-0.7166231062580211,-0.6974542375006868
1676963311.9007227,36,1676963311,900562021,map,0.015301697887480259,10.004945755004883,10.173309326171875,-0.002814441584737027,0.0009749973699456472,-0.7166631681546196,-0.6974132483734209
1676963311.9368644,37,1676963311,936714026,map,0.015081060118973255,10.005416870117188,10.173100471496582,-0.002941799565087393,0.000995830343137617,-0.7166687927832623,-0.6974068651015051
1676963311.9687483,38,1676963311,968464611,map,0.014950357377529144,10.005777359008789,10.172934532165527,-0.0030095840452024347,0.0009750991973901942,-0.7167374690972773,-0.6973359128576704
1676963312.0013337,39,1676963312,1009156,map,0.014830606058239937,10.006125450134277,10.172800064086914,-0.0029387888642330227,0.0009500405910446895,-0.7167627025471898,-0.697310426526667
1676963312.041859,40,1676963312,41719072,map,0.014729052782058716,10.006552696228027,10.172690391540527,-0.00301699736304686,0.0009796974020991197,-0.716781483578013,-0.6972907182651766
1676963312.072809,41,1676963312,72556716,map,0.014681587927043438,10.006811141967773,10.172663688659668,-0.0029432402135166685,0.0010781427266890753,-0.7168003996104603,-0.6972714650579412
1676963312.1047306,42,1676963312,104520271,map,0.014603175222873688,10.0071382522583,10.172656059265137,-0.0029955288944046865,0.0010754240080059325,-0.7168250858098865,-0.6972457673341508
1676963312.14163,43,1676963312,141268343,map,0.014488373883068562,10.007465362548828,10.17265510559082,-0.003112547479025533,0.0011509394713724375,-0.7168533709550489,-0.697216133489836
1676963312.1733851,44,1676963312,172771296,map,0.014400042593479156,10.007640838623047,10.172680854797363,-0.0030537785555428375,0.0011676441936799907,-0.7168691885355861,-0.6972001473219047
1676963312.2049654,45,1676963312,204570320,map,0.014292263425886631,10.007774353027344,10.172677993774414,-0.003101172192784957,0.001210469836942488,-0.7169003804962066,-0.6971677752495259
1676963312.240817,46,1676963312,240652985,map,0.014157085679471493,10.00790023803711,10.172652244567871,-0.003042093177157065,0.0010818346918369537,-0.7168849382860389,-0.6971840603966638
1676963312.2738132,47,1676963312,272966128,map,0.014022951945662498,10.00800609588623,10.172643661499023,-0.0031170636126251513,0.001087244552651968,-0.7168883719371036,-0.697180120983417
1676963312.3071108,48,1676963312,305956595,map,0.013909347355365753,10.00806999206543,10.17259407043457,-0.003039733200594646,0.0010310646145843434,-0.7168945866216254,-0.6971743277673802
1676963312.3463762,49,1676963312,345838095,map,0.013639867305755615,10.008176803588867,10.172513008117676,-0.0029496595407443567,0.0009751899942142321,-0.7169216639961601,-0.6971469132180574
1676963312.377532,50,1676963312,376981631,map,0.013400032185018063,10.0082426071167,10.172428131103516,-0.0028031800620602052,0.0009815414090395347,-0.7168764977210801,-0.6971939339544719
1676963312.4086933,51,1676963312,408521713,map,0.013167324475944042,10.008299827575684,10.172311782836914,-0.002730274904487216,0.0009271107298212392,-0.7168829672623266,-0.6971877172943166
1676963312.4448292,52,1676963312,444675904,map,0.012949761003255844,10.008355140686035,10.172170639038086,-0.00270343073702638,0.000980709914280143,-0.7168824483292543,-0.6971882362273889
1676963312.476647,53,1676963312,476461092,map,0.012737941928207874,10.00838851928711,10.172065734863281,-0.002663443173639098,0.0008892701038480442,-0.7168999708815227,-0.6971704607940293
1676963312.5085807,54,1676963312,508412972,map,0.0125098442658782,10.008379936218262,10.171951293945312,-0.0026386230427235466,0.0009394313567030243,-0.7169045299851514,-0.6971657331030066
1676963312.5458765,55,1676963312,545427305,map,0.01212611235678196,10.0083589553833,10.171833038330078,-0.0026541032838365694,0.0010071351651158387,-0.7168878582723874,-0.6971828262842558
1676963312.576729,56,1676963312,576518836,map,0.011763344518840313,10.008333206176758,10.17176628112793,-0.0025078182404184,0.0009334963066428936,-0.716875326828945,-0.6971962849583654
1676963312.6127229,57,1676963312,612568849,map,0.011386381462216377,10.008289337158203,10.171788215637207,-0.0025465411513961645,0.0008267648457812452,-0.7168942072999888,-0.6971768987251394
1676963312.6488116,58,1676963312,648603968,map,0.010962716303765774,10.008280754089355,10.171836853027344,-0.0023898924284197435,0.0008303483980394968,-0.7168688032870489,-0.6972035671435347
1676963312.6809473,59,1676963312,680677435,map,0.010500294156372547,10.008296012878418,10.17190933227539,-0.0023954615746876263,0.0006491039431886197,-0.716918687374984,-0.6971524186501442
1676963312.713515,60,1676963312,712989418,map,0.009990666061639786,10.008358001708984,10.17197036743164,-0.002486535234373287,0.000725365125892352,-0.7168683462571603,-0.6972038555860293
1676963312.7448266,61,1676963312,744651322,map,0.009474636986851692,10.008448600769043,10.172011375427246,-0.002582993730182659,0.0005600781922866584,-0.7168125385613758,-0.697260927687269
1676963312.7810478,62,1676963312,780775447,map,0.00878960732370615,10.008572578430176,10.172028541564941,-0.002535169404832319,0.0005205116857941676,-0.7168845971599838,-0.6971871832147206
1676963312.8142688,63,1676963312,813984060,map,0.008215348236262798,10.008672714233398,10.171980857849121,-0.002593034229023618,0.0004825688207861083,-0.7168444239693633,-0.6972281993423113
1676963312.8450255,64,1676963312,844724741,map,0.0076281349174678326,10.008736610412598,10.17191219329834,-0.002609165523700845,0.0005839505130190954,-0.7168520248900745,-0.6972203455405092
1676963312.8812976,65,1676963312,881065334,map,0.007051926106214523,10.008756637573242,10.171839714050293,-0.0027145659837937964,0.0006199102535594283,-0.7168633735875806,-0.6972081539060329
1676963312.9127378,66,1676963312,912512853,map,0.0064183445647358894,10.00876522064209,10.171728134155273,-0.002620741172107975,0.0006021200029485292,-0.716850455578512,-0.6972217462646776
1676963312.9448466,67,1676963312,944616696,map,0.005806562956422567,10.008744239807129,10.171607971191406,-0.0027864295709093476,0.0004980384428689399,-0.7167971845961721,-0.6972760287713815
1676963312.9808214,68,1676963312,980625463,map,0.00501595064997673,10.008683204650879,10.171477317810059,-0.0028716723128852017,0.00047919246309368073,-0.7167828619116681,-0.6972904357495827
1676963313.013038,69,1676963313,12824531,map,0.004365114029496908,10.008602142333984,10.171353340148926,-0.002854141199538194,0.0003364651240618243,-0.7167771714285746,-0.6972965477011612
1676963313.0447164,70,1676963313,44538456,map,0.003741277614608407,10.008533477783203,10.171232223510742,-0.0029551962536952213,0.0003791202866148174,-0.7167421776905094,-0.6973319629077116
1676963313.0806496,71,1676963313,80484331,map,0.0031142402440309525,10.008454322814941,10.171110153198242,-0.003086777726929471,0.00022382791837065045,-0.7167118932042208,-0.6973625002750912
1676963313.1136408,72,1676963313,113061283,map,0.002520234091207385,10.0084228515625,10.170989036560059,-0.0031982582815104363,0.0001815682941127644,-0.7166832629817363,-0.6973915519660608
1676963313.1457806,73,1676963313,145474837,map,0.0019937704782932997,10.00839614868164,10.170860290527344,-0.0031348053778966507,0.0001754160066830629,-0.716611389434135,-0.6974657014434816
1676963313.1809556,74,1676963313,180728438,map,0.001356339082121849,10.008408546447754,10.170690536499023,-0.0032577879062179156,7.347726811438577e-05,-0.7166446768833801,-0.6974309810013873
1676963313.2126358,75,1676963313,212450774,map,0.0008734758011996746,10.008452415466309,10.170564651489258,-0.0032465778323307794,9.675286520452689e-05,-0.7166400051686403,-0.697435737009824
1676963313.2447398,76,1676963313,244567137,map,0.00040288723539561033,10.00847053527832,10.17042064666748,-0.0032165577516621337,0.00015233039968347455,-0.7166089640147122,-0.6974678739818135
1676963313.2813568,77,1676963313,280974441,map,-6.440733704948798e-05,10.008480072021484,10.170233726501465,-0.0031004645867111296,0.0002803125979093443,-0.7166352610140049,-0.6974411555140356
1676963313.3130965,78,1676963313,312650879,map,-0.0005006560240872204,10.008492469787598,10.170077323913574,-0.0030952406824015567,0.0002585513239153092,-0.7166219992447032,-0.6974549230455195
1676963313.3447247,79,1676963313,344535852,map,-0.0009133222047239542,10.008503913879395,10.169984817504883,-0.003206169212048706,0.00015897906503606826,-0.7166614414509197,-0.6974139635527565
1676963313.38065,80,1676963313,380498722,map,-0.001459535676985979,10.008528709411621,10.169919967651367,-0.0032367139880540873,0.00014389131644980302,-0.7166714111562261,-0.697403488085268
1676963313.412814,81,1676963313,412615075,map,-0.0018790506292134523,10.00850772857666,10.169867515563965,-0.003216077014171306,0.0002098634820788767,-0.7166502540968182,-0.6974254037879493
1676963313.4487755,82,1676963313,448579665,map,-0.002271018223837018,10.008443832397461,10.169811248779297,-0.0032162097108896642,0.00016720395666851846,-0.7166629258102408,-0.6974123948997385
1676963313.4886696,83,1676963313,488500902,map,-0.0026360265910625458,10.00839614868164,10.169763565063477,-0.0031058723895745566,0.00013328249369845544,-0.7166545333190311,-0.6974214617405244
1676963313.5208552,84,1676963313,520515281,map,-0.002993387635797262,10.008358001708984,10.169746398925781,-0.0030390077315010392,0.00012402467500523422,-0.7166639432615055,-0.6974121360917469
1676963313.553688,85,1676963313,553167343,map,-0.0033781176898628473,10.008349418640137,10.169753074645996,-0.0029821750111898764,0.0001929930535095025,-0.7166858431591185,-0.6973898147256489
1676963313.5893795,86,1676963313,588932706,map,-0.003834122559055686,10.00838565826416,10.169800758361816,-0.002998968390051817,2.4535557370126057e-05,-0.7166997430580485,-0.6973754933582337
1676963313.6212964,87,1676963313,620875813,map,-0.004174604546278715,10.008419036865234,10.16982650756836,-0.003009480571396618,6.163318050218962e-05,-0.7167156508591833,-0.6973590797949167
1676963313.6528025,88,1676963313,652553640,map,-0.004492618143558502,10.008424758911133,10.169840812683105,-0.00306299356884304,-1.0947973172871927e-05,-0.7167881987563608,-0.6972842559679198
1676963313.6886868,89,1676963313,688507498,map,-0.004794165957719088,10.008464813232422,10.169811248779297,-0.003123482034354142,-4.873064722858135e-06,-0.7167774071875085,-0.6972951318304692
1676963313.7209814,90,1676963313,720754418,map,-0.005080224480479956,10.008513450622559,10.169758796691895,-0.0030685671602863514,4.412412839619891e-05,-0.7168052912790654,-0.697266657683033
1676963313.757873,91,1676963313,757267801,map,-0.005400709342211485,10.008628845214844,10.169700622558594,-0.0030387876129992462,3.983519265183446e-05,-0.7168158714551308,-0.6972559932132707
1676963313.792649,92,1676963313,792503340,map,-0.005742174107581377,10.008749008178711,10.169650077819824,-0.0031239774244602716,3.5013494400512126e-05,-0.7167966821267127,-0.6972753511290829
1676963313.8246686,93,1676963313,824514693,map,-0.005965926684439182,10.008842468261719,10.169639587402344,-0.0031281977069396788,4.8902527346121476e-05,-0.7168205991461536,-0.6972506754663688
1676963313.8567865,94,1676963313,856591325,map,-0.0061312648467719555,10.008922576904297,10.169632911682129,-0.0032485969297922548,7.339560859539593e-05,-0.7168037891390427,-0.6972673168860855
1676963313.8939068,95,1676963313,893565127,map,-0.006294436287134886,10.008954048156738,10.169631004333496,-0.00329065273452492,-1.8373062500377095e-05,-0.71676894620767,-0.6973030870481256
1676963313.9256446,96,1676963313,925019937,map,-0.006477672606706619,10.008950233459473,10.169678688049316,-0.0033473853560708694,5.2948954075421547e-05,-0.7167273610976242,-0.6973455150951413
1676963313.9582162,97,1676963313,957684183,map,-0.006648986600339413,10.008891105651855,10.169746398925781,-0.003214972635031419,4.504757243251758e-05,-0.7167088362406148,-0.6973652200639091
1676963314.0057886,98,1676963314,4575542,map,-0.006806090008467436,10.008761405944824,10.169817924499512,-0.0031847614118193307,0.0001182426542251461,-0.7167113327828446,-0.6973626392279824
1676963314.037721,99,1676963314,37043852,map,-0.006901748478412628,10.008599281311035,10.169816970825195,-0.0031541283908498793,3.084145030631444e-05,-0.7167106959703053,-0.6973636132153097
1676963314.0686662,100,1676963314,68506355,map,-0.006985978223383427,10.00839614868164,10.169790267944336,-0.0032030572599762337,0.0001272312928507292,-0.7167301915219196,-0.6973432747267252
1676963314.1048188,101,1676963314,104584438,map,-0.007032113615423441,10.008139610290527,10.169746398925781,-0.0030899366002981373,3.747184104881148e-05,-0.7167133795391754,-0.6973610139401366
1676963314.1367986,102,1676963314,136559824,map,-0.007088095415383577,10.007841110229492,10.169692993164062,-0.0031477624057273377,6.74178354603097e-05,-0.716691781254947,-0.697382949399153
1676963314.169719,103,1676963314,169087523,map,-0.00716450996696949,10.00753116607666,10.169633865356445,-0.003007842771205265,2.657655143649155e-05,-0.7167462310319561,-0.6973277409788708
1676963314.2054324,104,1676963314,204773349,map,-0.00727934530004859,10.007123947143555,10.169567108154297,-0.0028461379904507434,-5.1658042203474574e-05,-0.716708897485254,-0.6973667603995134
1676963314.236728,105,1676963314,236548707,map,-0.00741233304142952,10.006841659545898,10.1693754196167,-0.0029495976375606067,-1.6124956186251146e-05,-0.7166706314395287,-0.6974055322074209
1676963314.2687495,106,1676963314,268570707,map,-0.007548765745013952,10.006543159484863,10.168596267700195,-0.0028755989668321127,-0.0002988766383169494,-0.716648393708583,-0.6974286971690337
1676963314.3046455,107,1676963314,304471025,map,-0.007677238900214434,10.006230354309082,10.167125701904297,-0.0027502249341301082,-0.0005765611497309746,-0.716487062816473,-0.6975948328018741
1676963314.3372386,108,1676963314,336870768,map,-0.007785244379192591,10.005890846252441,10.165114402770996,-0.0027266942333611867,-0.0007923970542707236,-0.7163459584603811,-0.6977395617869379
1676963314.3697808,109,1676963314,369074742,map,-0.00785746704787016,10.005563735961914,10.162677764892578,-0.002674015694124443,-0.0009369514427219149,-0.7159807211151753,-0.6981144086136042
1676963314.4046328,110,1676963314,404469416,map,-0.007864349521696568,10.00512981414795,10.159244537353516,-0.0025101311310484985,-0.001021094168415248,-0.715497849940142,-0.6986097552557966
1676963314.4368474,111,1676963314,436592466,map,-0.007877051830291748,10.00477409362793,10.156487464904785,-0.0023877390701967038,-0.0008905504790075159,-0.7152200587445177,-0.6988947957093649
1676963314.4692116,112,1676963314,468569463,map,-0.007855217903852463,10.004393577575684,10.153458595275879,-0.0021722579976696625,-0.0008671083113158868,-0.714564694347964,-0.6995655015587764
1676963314.504663,113,1676963314,504472558,map,-0.007838989607989788,10.0039701461792,10.150341987609863,-0.0019596022868770256,-0.0007573562714322489,-0.713867966770864,-0.7002772334139464
1676963314.5370986,114,1676963314,536727923,map,-0.007811354473233223,10.003538131713867,10.147109985351562,-0.0019525822847399933,-0.0006481640766984598,-0.7135845423855184,-0.7005662211832955
1676963314.5688066,115,1676963314,568614775,map,-0.007734769023954868,10.003130912780762,10.143671989440918,-0.0017165045741812843,-0.0004584257559426535,-0.712771425627711,-0.7013942579254757
1676963314.6046925,116,1676963314,604532886,map,-0.007668443955481052,10.00263500213623,10.139274597167969,-0.0015815561275138467,-0.00028265907430917664,-0.7120540707902596,-0.702122823824631
1676963314.636857,117,1676963314,636540445,map,-0.007630572654306889,10.002245903015137,10.135592460632324,-0.0014310488259827456,-0.00011559464675837408,-0.7117106296219067,-0.7024712383211081
1676963314.6735806,118,1676963314,672943212,map,-0.007611083332449198,10.001886367797852,10.131815910339355,-0.001245924432685993,-0.00013067066502059067,-0.7111287120357838,-0.70306082663366
1676963314.709638,119,1676963314,709048112,map,-0.007725577335804701,10.001618385314941,10.127991676330566,-0.0010607561227023645,3.9184674155042625e-05,-0.7103990002691847,-0.7037984620077792
1676963314.7447233,120,1676963314,744549768,map,-0.007848327979445457,10.001378059387207,10.12413215637207,-0.0010570521391172157,0.00012363395231684165,-0.7101207513851273,-0.7040790711153532
1676963314.776804,121,1676963314,776633028,map,-0.008014803752303123,10.001123428344727,10.119282722473145,-0.001148918604072424,0.00022788912119234785,-0.709502408385179,-0.7047021345623348
1676963314.812807,122,1676963314,812602419,map,-0.00816591177135706,10.00090503692627,10.115345001220703,-0.0011784083917760174,0.00022911327311462431,-0.7089649838770128,-0.7052426779372907
1676963314.848694,123,1676963314,848515132,map,-0.008354181423783302,10.00069808959961,10.111366271972656,-0.0011439453171071703,0.0002570819464818726,-0.7086296044458905,-0.7055797432423534
1676963314.8806417,124,1676963314,880503566,map,-0.008606236428022385,10.00050163269043,10.107342720031738,-0.0011969613604042558,0.00034485531036577787,-0.708151243065966,-0.7060597904962184
1676963314.9171865,125,1676963314,916687234,map,-0.008882462978363037,10.000368118286133,10.103262901306152,-0.0013018970527106984,0.0003088743317650625,-0.7075743118142215,-0.7066376489786302
1676963314.9492366,126,1676963314,948778851,map,-0.009145271964371204,10.000279426574707,10.099211692810059,-0.0013104098517702323,0.00029594088805956774,-0.7073350460691201,-0.7068772518985197
1676963314.980646,127,1676963314,980472299,map,-0.009461411274969578,10.000214576721191,10.09511661529541,-0.0015003074579789072,0.00021294267156207684,-0.7068694714009529,-0.7073424893918988
1676963315.0167482,128,1676963315,16544409,map,-0.00986798107624054,10.000168800354004,10.090027809143066,-0.0016580631119551834,0.0002347661780121162,-0.7065963118517508,-0.7076148902978276
1676963315.0486283,129,1676963315,48483251,map,-0.010203438811004162,10.00015640258789,10.086014747619629,-0.0018496317336938323,0.0001377298093969897,-0.7064192317030961,-0.7077912960969062
1676963315.0812685,130,1676963315,80798603,map,-0.01052778773009777,10.000171661376953,10.082038879394531,-0.0018988324170658563,0.0001479253954695781,-0.7062573494034378,-0.7079527569280795
1676963315.1180868,131,1676963315,117186987,map,-0.01084094401448965,10.000203132629395,10.078088760375977,-0.0020574990027327996,-2.105284473948588e-05,-0.7060695451044248,-0.7081395497027282
1676963315.1487246,132,1676963315,148550462,map,-0.011140159331262112,10.000247955322266,10.074231147766113,-0.0021297416645307578,-6.061721096232545e-05,-0.7059700239650629,-0.7082385650799079
1676963315.1807845,133,1676963315,180602580,map,-0.011431819759309292,10.000297546386719,10.070423126220703,-0.0021908116248424087,-3.56465203086369e-05,-0.7057444034062236,-0.7084630898206858
1676963315.217134,134,1676963315,216845276,map,-0.011767856776714325,10.000334739685059,10.065735816955566,-0.002347097654431058,-8.266717440504745e-05,-0.7056301187691275,-0.7085765315208117
1676963315.2540326,135,1676963315,253230138,map,-0.012027115561068058,10.000365257263184,10.061994552612305,-0.0023047723403585006,-0.0001045236080804859,-0.705601253940162,-0.7086053963497772
1676963315.2855773,136,1676963315,284980206,map,-0.012278328649699688,10.00037956237793,10.058268547058105,-0.0023898710257232343,-7.441569403808756e-05,-0.7054962407865578,-0.7087097351538052
1676963315.320592,137,1676963315,320403870,map,-0.012501625344157219,10.0003662109375,10.054632186889648,-0.0022441464036813573,-8.288194223193429e-06,-0.7054843181675131,-0.7087220792413351
1676963315.3527606,138,1676963315,352550609,map,-0.012689615599811077,10.000348091125488,10.05108642578125,-0.0023313139066179185,-0.00011421878264507101,-0.7055123354496968,-0.7086938090780602
1676963315.3855598,139,1676963315,385302995,map,-0.012860564514994621,10.000301361083984,10.047660827636719,-0.0024988379982352933,-0.00013872149510777467,-0.7055668510811567,-0.7086389562718123
1676963315.4214365,140,1676963315,420974271,map,-0.013041935861110687,10.000182151794434,10.043497085571289,-0.002526773620900047,-0.00014058978587692142,-0.705591217227952,-0.7086145901250169
1676963315.4569743,141,1676963315,456772831,map,-0.013174038380384445,10.000038146972656,10.040242195129395,-0.002557541149585254,-3.170159175162971e-05,-0.705639839709246,-0.7085660519374201
1676963315.4887223,142,1676963315,488537325,map,-0.013266674242913723,9.999868392944336,10.03705883026123,-0.002554552839244155,-2.997406487106407e-05,-0.7057750823606724,-0.7084314836355698
1676963315.5247467,143,1676963315,524526160,map,-0.013331281021237373,9.999700546264648,10.03395938873291,-0.002682002521917257,2.341652561493626e-05,-0.7059142911787162,-0.708292359111223
1676963315.5574949,144,1676963315,557285539,map,-0.013394424691796303,9.999543190002441,10.03088092803955,-0.0026694889414946334,-6.270899527386918e-05,-0.7059372528147122,-0.7082693131815301
1676963315.5892284,145,1676963315,588715884,map,-0.013409228064119816,9.999412536621094,10.027957916259766,-0.0026520920065911265,-4.212132991034082e-06,-0.7060952070198576,-0.7081120333259608
1676963315.624648,146,1676963315,624498877,map,-0.013377116993069649,9.999364852905273,10.024490356445312,-0.0025891097153463577,-6.452978852037782e-05,-0.7061762596900834,-0.7080314021242201
1676963315.65677,147,1676963315,656587732,map,-0.01330024003982544,9.99941349029541,10.021777153015137,-0.0026000960487369065,5.089067321650305e-06,-0.7062184030812355,-0.707989427320462
1676963315.6886694,148,1676963315,688523034,map,-0.013190725818276405,9.999471664428711,10.019206047058105,-0.0025613468782968857,-4.1297573049700074e-05,-0.7063517422097616,-0.7078565096604211
1676963315.7249606,149,1676963315,724644168,map,-0.013048744760453701,9.999547958374023,10.016751289367676,-0.0025084012169440915,1.8198795160125875e-05,-0.7065528910900482,-0.7076557822486196
1676963315.7573783,150,1676963315,756623702,map,-0.012897346168756485,9.999646186828613,10.014354705810547,-0.0025982074254060758,6.421879087743851e-06,-0.7066518428353649,-0.707556746209606
1676963315.7896411,151,1676963315,788676528,map,-0.012709233909845352,9.999771118164062,10.012077331542969,-0.002453741281918954,9.336975743089292e-05,-0.7067548875171166,-0.7074543758774304
1676963315.8287766,152,1676963315,828593963,map,-0.012405255809426308,9.999947547912598,10.009401321411133,-0.00256546212292727,0.0002658775492485535,-0.7068140351036913,-0.7073948068223704
1676963315.8653674,153,1676963315,864868078,map,-0.012111159972846508,10.000107765197754,10.007328987121582,-0.0025295651087513223,0.0003139981373094222,-0.706891503069206,-0.7073174231505529
1676963315.8966074,154,1676963315,896448991,map,-0.011774711310863495,10.000276565551758,10.005404472351074,-0.002448029560765093,0.0005473262187521445,-0.70701052282653,-0.707198740568017
1676963315.9331117,155,1676963315,932857766,map,-0.01128967385739088,10.000458717346191,10.00308895111084,-0.0025240460941841096,0.0006260383394784615,-0.7070829800349259,-0.707125946184833
1676963315.964826,156,1676963315,964631425,map,-0.010913982056081295,10.0005521774292,10.001351356506348,-0.0025596098025209542,0.0007378410869599578,-0.7071460245534817,-0.7070625644914891
1676963315.996686,157,1676963315,996535830,map,-0.010625801980495453,10.000621795654297,10.000146865844727,-0.0025511344170212804,0.000689528203902758,-0.7072057720535238,-0.7070028169914471
1676963316.036747,158,1676963316,36577035,map,-0.010195929557085037,10.000693321228027,9.998204231262207,-0.0023196258940541142,0.0007994262760310412,-0.7073221461288665,-0.7068871172656805
1676963316.0689516,159,1676963316,68729903,map,-0.009857789613306522,10.000763893127441,9.996767044067383,-0.002450377354254115,0.0008981235762133637,-0.7073201247882378,-0.7068886328441271
1676963316.1007843,160,1676963316,100557953,map,-0.009533499367535114,10.000824928283691,9.995448112487793,-0.0023188359287577573,0.0009755550336668132,-0.7074167425900795,-0.7067922679233763
1676963316.1366575,161,1676963316,136490058,map,-0.009245363064110279,10.000921249389648,9.994258880615234,-0.002305572760048922,0.0011071487722925238,-0.7074264903453071,-0.7067823515807546
1676963316.1697738,162,1676963316,169111839,map,-0.008979925885796547,10.001030921936035,9.993178367614746,-0.0023300583503544177,0.0011092222819939707,-0.7074222895927883,-0.7067863837458794
1676963316.2018363,163,1676963316,201212262,map,-0.008698568679392338,10.001190185546875,9.99196720123291,-0.0022567281846195895,0.0011690835661792825,-0.7075000742976317,-0.7067088519221272
1676963316.2367454,164,1676963316,236561300,map,-0.008436030708253384,10.001311302185059,9.991132736206055,-0.002286734929761949,0.0012123655807858118,-0.7075276066441034,-0.7066810666945643
1676963316.2687886,165,1676963316,268557933,map,-0.0081444988027215,10.001419067382812,9.990396499633789,-0.0022900294632992595,0.0011839106957765133,-0.7075283483298556,-0.7066804093025093
1676963316.3015537,166,1676963316,301176493,map,-0.007815217599272728,10.001473426818848,9.989768028259277,-0.0021353835799667728,0.001197366282958775,-0.7074784798411934,-0.7067306992596565
1676963316.336907,167,1676963316,336718455,map,-0.007498487364500761,10.001544952392578,9.989255905151367,-0.0022246826268395472,0.0011904524711236551,-0.7074545842656079,-0.7067544262478479
1676963316.3695142,168,1676963316,368953235,map,-0.007178931962698698,10.001640319824219,9.988897323608398,-0.0021907394319007206,0.0011580291969092529,-0.7074376504315502,-0.7067715286692997
1676963316.4008362,169,1676963316,400577719,map,-0.006872654892504215,10.001749038696289,9.988581657409668,-0.0021113540728920866,0.0011312107538432596,-0.7074180262991208,-0.7067914056828203
1676963316.4408238,170,1676963316,440611337,map,-0.006464154459536076,10.001873970031738,9.988286972045898,-0.0020487688428265996,0.001171534216088645,-0.7073230462151523,-0.7068865543541828
1676963316.4735715,171,1676963316,472990216,map,-0.006163426209241152,10.001956939697266,9.988122940063477,-0.002024927638322165,0.0012313750853942091,-0.7072464891504591,-0.706963111418876
1676963316.5056832,172,1676963316,505029556,map,-0.005836797878146172,10.001983642578125,9.988028526306152,-0.0020504270167386687,0.0011929534173698146,-0.7072535705310021,-0.7069561143320299
1676963316.5406835,173,1676963316,540484708,map,-0.005455185659229755,10.001993179321289,9.987972259521484,-0.0019797540369345186,0.001051941545622221,-0.707298131788895,-0.7069118059552282
1676963316.5726988,174,1676963316,572513307,map,-0.005049896892160177,10.001988410949707,9.987977981567383,-0.0019792588114645156,0.0010444538945664575,-0.7072883192081924,-0.7069216185359308
1676963316.6047566,175,1676963316,604489513,map,-0.004589253570884466,10.001911163330078,9.988024711608887,-0.0019751936573757702,0.0010181650859210096,-0.707362868525027,-0.7068472378064902
1676963316.6406999,176,1676963316,640510624,map,-0.00397863332182169,10.001737594604492,9.98814868927002,-0.0019908512939156306,0.0010531188997253988,-0.7073434925815589,-0.7068665294562612
1676963316.6727664,177,1676963316,672580172,map,-0.003437733743339777,10.001529693603516,9.988245964050293,-0.0018879800563236502,0.0009813859513766192,-0.7073519267462884,-0.7068583481726228
1676963316.704707,178,1676963316,704534408,map,-0.0028892233967781067,10.001317977905273,9.988327980041504,-0.0018579424830665106,0.0010803290121375146,-0.7073824887473485,-0.7068277018778656
1676963316.7407036,179,1676963316,740531986,map,-0.0023360480554401875,10.001112937927246,9.988450050354004,-0.001739545194359171,0.0010078155650696803,-0.7073766521908514,-0.7068339599028479
1676963316.7727733,180,1676963316,772561791,map,-0.001739531522616744,10.000885963439941,9.988495826721191,-0.0016692094716611718,0.0009398452519262915,-0.7073956273276683,-0.7068152376471221
1676963316.8047042,181,1676963316,804487699,map,-0.0011360388016328216,10.00063705444336,9.988557815551758,-0.0015716135871684503,0.0008768718510323805,-0.7074081893522712,-0.7068030127973072
1676963316.8449929,182,1676963316,844727256,map,-0.000383456121198833,10.0003662109375,9.988670349121094,-0.0014871115225484333,0.0008503133478313976,-0.7073485409014391,-0.7068629984229274
1676963316.8771462,183,1676963316,876948492,map,0.00023417711781803519,10.00016975402832,9.988797187805176,-0.0013826416475838086,0.0008021686611574399,-0.7073667510976509,-0.7068449568141096
1676963316.908706,184,1676963316,908542720,map,0.0008228637743741274,9.999991416931152,9.988975524902344,-0.0012708185881201443,0.0008973554046243178,-0.7073934243110734,-0.7068184521880811
1676963316.9447286,185,1676963316,944541795,map,0.0013691340573132038,9.999821662902832,9.989164352416992,-0.0012949322654147572,0.0008893164694973093,-0.7074192825756673,-0.7067925096297903
1676963316.9767737,186,1676963316,976557172,map,0.001910303602926433,9.999746322631836,9.989319801330566,-0.00130037221348198,0.000978970183746664,-0.7073840659408657,-0.7068276419708949
1676963317.0086126,187,1676963317,8461332,map,0.002428448759019375,9.999703407287598,9.989494323730469,-0.001232565754443984,0.0009365269078891141,-0.7074160598646403,-0.7067958166345143
1676963317.044598,188,1676963317,44453020,map,0.003073830856010318,9.999691009521484,9.98975658416748,-0.001316956020844013,0.0010141904508328377,-0.7074216522246021,-0.7067898870997644
1676963317.0771084,189,1676963317,76715906,map,0.003547417465597391,9.99970817565918,9.989981651306152,-0.0012763516379171835,0.0009796203318121698,-0.7073875256455974,-0.7068240979724663
1676963317.109423,190,1676963317,108928465,map,0.004000761546194553,9.999722480773926,9.99023723602295,-0.0013072187714592224,0.0009745699539804503,-0.7073463678897784,-0.7068652557282852
1676963317.1447456,191,1676963317,144574882,map,0.004454218316823244,9.999731063842773,9.990484237670898,-0.0013240120165543096,0.0010301907568915241,-0.7073851333797746,-0.706826321650895
1676963317.180894,192,1676963317,180602715,map,0.004866322036832571,9.999717712402344,9.990774154663086,-0.0012720126322106964,0.0009247151918553886,-0.7073831996255654,-0.7068285925798923
1676963317.2182999,193,1676963317,218035517,map,0.005243853200227022,9.999675750732422,9.991087913513184,-0.0014295480647876003,0.0009631359338015688,-0.7073824214111726,-0.706829033619497
1676963317.2648804,194,1676963317,264570375,map,0.00567155284807086,9.999628067016602,9.991446495056152,-0.0014158449883474324,0.0010748124876917228,-0.7072985374934709,-0.7069127489498046
1676963317.2982824,195,1676963317,297450128,map,0.006023260299116373,9.999545097351074,9.991732597351074,-0.001362525664724905,0.0010500014323426721,-0.7072894549710939,-0.7069219157658786
1676963317.3287165,196,1676963317,328541843,map,0.0063955397345125675,9.999444007873535,9.99201774597168,-0.001382152945820338,0.0010330932815207,-0.707218836475558,-0.7069926185551115
1676963317.368778,197,1676963317,368498002,map,0.0068070790730416775,9.999289512634277,9.992337226867676,-0.0012117935062584807,0.0010830895535417938,-0.7072095314783247,-0.7070021764334359
1676963317.4048514,198,1676963317,404630182,map,0.007204981986433268,9.999155044555664,9.992659568786621,-0.0012287457795624878,0.0011821624504683409,-0.7072706454170617,-0.7069408939073047
1676963317.4408727,199,1676963317,440587076,map,0.0075842528603971004,9.99902629852295,9.993016242980957,-0.0011657642973499367,0.0011477947554244736,-0.7072687208618962,-0.7069429027561674
1676963317.4766796,200,1676963317,476477888,map,0.008045433089137077,9.99884033203125,9.993471145629883,-0.0009755824352920265,0.0012292189798057999,-0.7072300279146936,-0.7069817642907641
1676963317.508942,201,1676963317,508684232,map,0.00839168205857277,9.998692512512207,9.993829727172852,-0.001108346232582537,0.0013051158330502487,-0.707228241767062,-0.7069832975573045
1676963317.5408025,202,1676963317,540577947,map,0.008734826929867268,9.998551368713379,9.99420166015625,-0.001096850628202401,0.0013038521375882196,-0.7071922708209754,-0.7070193527970883
1676963317.5767686,203,1676963317,576540715,map,0.009093422442674637,9.998382568359375,9.994606971740723,-0.0011861860738076584,0.001218447379514984,-0.7071859723469546,-0.7070256512711091
1676963317.6087961,204,1676963317,608592952,map,0.009449596516788006,9.998200416564941,9.995001792907715,-0.0012972045475151566,0.0011687179968041673,-0.707171742645848,-0.7070397123848216
1676963317.6406944,205,1676963317,640535792,map,0.009885949082672596,9.9979248046875,9.995532989501953,-0.0013037340111669263,0.0011051439261457916,-0.707174226896962,-0.7070373967211017
1676963317.6816049,206,1676963317,681027376,map,0.01023444626480341,9.997682571411133,9.99595832824707,-0.00142896747548575,0.0012551262545166932,-0.7071800996785519,-0.7070309338836325
1676963317.7127228,207,1676963317,712560102,map,0.010574321262538433,9.99743366241455,9.996329307556152,-0.0013387148561654167,0.0011428283638832573,-0.7071506660729266,-0.7070607046640458
1676963317.7446775,208,1676963317,744518614,map,0.010874135419726372,9.997170448303223,9.996652603149414,-0.0012925015390492006,0.0012534721939353598,-0.7071143390934981,-0.7070969473497775
1676963317.7819157,209,1676963317,781348025,map,0.011148890480399132,9.996914863586426,9.996906280517578,-0.0011804792804831845,0.00117186409254436,-0.7070136287590941,-0.7071979948589695
1676963317.8131251,210,1676963317,812911405,map,0.011384070850908756,9.996685981750488,9.99718189239502,-0.00113915762779205,0.0011750881222680593,-0.7069844993290032,-0.7072272928764545
1676963317.8457813,211,1676963317,845441659,map,0.011573581956326962,9.996465682983398,9.997434616088867,-0.0012034820726168995,0.0011347903445447054,-0.7069229390823054,-0.7072886845357582
1676963317.881124,212,1676963317,880744267,map,0.011823130771517754,9.996238708496094,9.997733116149902,-0.0011452708115691505,0.0011147100478525478,-0.7068844112033995,-0.707327296708361
1676963317.9127376,213,1676963317,912535955,map,0.012028240598738194,9.996051788330078,9.997941970825195,-0.0012200342544079123,0.0010874798536915976,-0.7069153563333067,-0.7072963515784538
1676963317.944818,214,1676963317,944589574,map,0.012216669507324696,9.995834350585938,9.99814224243164,-0.0012188213337564243,0.001013147347201467,-0.7068542208478165,-0.7073574870639441
1676963317.9821014,215,1676963317,981506746,map,0.012373126111924648,9.99560260772705,9.99835205078125,-0.0012109982571714229,0.0009571531804236408,-0.7068671299871138,-0.7073446622183439
1676963318.0168257,216,1676963318,16609697,map,0.012524927966296673,9.995352745056152,9.998540878295898,-0.0012427306873276775,0.0009710624944821447,-0.70684226812094,-0.7073694397908206
1676963318.0487115,217,1676963318,48506624,map,0.012656185775995255,9.995110511779785,9.998730659484863,-0.0013116522577230894,0.0008977423406817895,-0.7068241544220781,-0.7073876377833795
1676963318.0886586,218,1676963318,88459066,map,0.012813564389944077,9.994783401489258,9.998927116394043,-0.001260779571004329,0.0007996234483726342,-0.7068537499884933,-0.7073581265106613
1676963318.120756,219,1676963318,120520882,map,0.012946771457791328,9.994488716125488,9.999138832092285,-0.0013620903668051286,0.000775701016519043,-0.706870463333618,-0.7073413288718396
1676963318.1526904,220,1676963318,152510231,map,0.013070900924503803,9.994227409362793,9.999308586120605,-0.001196029828618198,0.0006776213281876287,-0.7069650429196281,-0.7072472550480117
1676963318.192726,221,1676963318,192552455,map,0.013215316459536552,9.99399185180664,9.99945068359375,-0.001272760409499511,0.0006182096446856264,-0.7070565770099673,-0.7071556366639754
1676963318.2246282,222,1676963318,224489492,map,0.0134119288995862,9.993782043457031,9.999685287475586,-0.0013080359222960498,0.0005790893844153574,-0.7070897946470633,-0.7071224190268793
1676963318.2572308,223,1676963318,256644073,map,0.01361324917525053,9.993597984313965,9.999955177307129,-0.0012922255034303373,0.0005334869059168875,-0.7071421781853711,-0.7070700354885716
1676963318.2925615,224,1676963318,292464009,map,0.013843238353729248,9.993386268615723,10.000321388244629,-0.001437760053063597,0.0005909814634585728,-0.7071449138409958,-0.7070669626581588
1676963318.3246996,225,1676963318,324524295,map,0.014029189944267273,9.99317741394043,10.000536918640137,-0.0014586537769864286,0.0005859364363009807,-0.7071728368484174,-0.7070390396507372
1676963318.356724,226,1676963318,356548260,map,0.014196901582181454,9.992962837219238,10.000701904296875,-0.0014398520843293314,0.0005847922975364244,-0.7071596538626472,-0.7070522226365074
1676963318.3974717,227,1676963318,397027982,map,0.01437750831246376,9.992730140686035,10.000880241394043,-0.0014550031355064262,0.0005423521497652875,-0.707155601822855,-0.7070562746762996
1676963318.4328856,228,1676963318,432664682,map,0.014601290225982666,9.992448806762695,10.001160621643066,-0.0015728714071786974,0.0005798919855344614,-0.7072088498024408,-0.7070028581093197
1676963318.4645975,229,1676963318,464423978,map,0.0147002674639225,9.992318153381348,10.001320838928223,-0.0013711762230637027,0.0005219156615261549,-0.7072046986053963,-0.7070074307748495
1676963318.5012202,230,1676963318,500727258,map,0.01483694277703762,9.992093086242676,10.001592636108398,-0.001407236062369249,0.0005699621633298756,-0.7072173548738921,-0.7069946902126565
1676963318.533474,231,1676963318,533176346,map,0.014902624301612377,9.991948127746582,10.001823425292969,-0.001470040423119767,0.0005770224601589902,-0.7072460132594443,-0.7069657789460134
1676963318.565191,232,1676963318,564702963,map,0.014940967783331871,9.991822242736816,10.002083778381348,-0.0013852227304647837,0.0004795703441641676,-0.7071686047275714,-0.7070434403589773
1676963318.6006615,233,1676963318,600463147,map,0.014970673248171806,9.991718292236328,10.00234317779541,-0.0013377644323837867,0.0005158975936989865,-0.7071174685240105,-0.7070947451499322
1676963318.632697,234,1676963318,632522073,map,0.01498267613351345,9.991668701171875,10.002556800842285,-0.00135689527381778,0.0005310411950913349,-0.7070870247779935,-0.7071250203085552
1676963318.6687546,235,1676963318,668587475,map,0.014975775964558125,9.99166202545166,10.00275993347168,-0.001218242905303741,0.0006283730238158713,-0.7071360900391476,-0.7070762079284922
1676963318.704688,236,1676963318,704493938,map,0.014998150058090687,9.99169921875,10.002954483032227,-0.0013228442422157714,0.0005113439642214448,-0.7071899187572368,-0.707022210623009
1676963318.736678,237,1676963318,736526124,map,0.015041401609778404,9.99173641204834,10.003035545349121,-0.0013840510151489553,0.0005588314440559517,-0.7071698994260741,-0.7070420613667776
1676963318.7686737,238,1676963318,768519520,map,0.015112542547285557,9.991808891296387,10.003093719482422,-0.001400839578404181,0.0005737453780511411,-0.707116213470659,-0.7070957473221927
1676963318.8053558,239,1676963318,804561405,map,0.01518968865275383,9.991913795471191,10.003134727478027,-0.0013891055500428813,0.0006250087051402304,-0.7071434216768934,-0.7070684548222612
1676963318.8375046,240,1676963318,837064489,map,0.01526859775185585,9.992032051086426,10.003137588500977,-0.001401642138364253,0.0006632936428611552,-0.7071776948798039,-0.7070341816193507
1676963318.8695679,241,1676963318,868972236,map,0.01539540383964777,9.992144584655762,10.003132820129395,-0.0014817159644969515,0.000691827800165602,-0.7071450667905302,-0.7070667254149274
1676963318.9087763,242,1676963318,908597657,map,0.015537571161985397,9.992238998413086,10.003140449523926,-0.001504585980488239,0.0007938094264453613,-0.7071614559130996,-0.707050167704964
1676963318.9407725,243,1676963318,940560051,map,0.01564137078821659,9.992273330688477,10.003167152404785,-0.0014592354364231042,0.0007845404536545362,-0.7071442963732015,-0.7070673272448621
1676963318.972638,244,1676963318,972467860,map,0.015732156112790108,9.992255210876465,10.003205299377441,-0.0013295300124354867,0.0007935346693289212,-0.7070927559776591,-0.7071191205214955
1676963319.008691,245,1676963319,8516035,map,0.01577841117978096,9.992161750793457,10.003227233886719,-0.0013896991455987643,0.0007962846894557096,-0.7071128756847672,-0.7070988322269933
1676963319.0408301,246,1676963319,40561554,map,0.015798166394233704,9.992067337036133,10.003190040588379,-0.0013235514366992814,0.0007915962229901582,-0.7070773398970455,-0.7071346208958063
1676963319.0727477,247,1676963319,72527646,map,0.015902630984783173,9.991888999938965,10.00313949584961,-0.0013304337824546295,0.0007117196515171166,-0.7070914777787833,-0.7071204830140684
1676963319.1086092,248,1676963319,108487945,map,0.01602107845246792,9.991679191589355,10.003138542175293,-0.001358191577522712,0.0007659853859156786,-0.7071071195771348,-0.7071048412157169
1676963319.144902,249,1676963319,144591815,map,0.01614360883831978,9.991477966308594,10.00310230255127,-0.0013389947787403413,0.0007681314795696148,-0.7071269285686027,-0.707085032224249
1676963319.1773367,250,1676963319,177062672,map,0.01637319102883339,9.991236686706543,10.003046989440918,-0.0014761245511928926,0.0007022657717761597,-0.7071330391207743,-0.7070787530846834
1676963319.212615,251,1676963319,212480128,map,0.016588831320405006,9.990991592407227,10.002986907958984,-0.0014388456636850067,0.0005958453085584062,-0.7071988445768901,-0.7070130319222645
1676963319.249302,252,1676963319,248825361,map,0.016836026683449745,9.990736961364746,10.00292682647705,-0.0014245419946535586,0.0005189288740692309,-0.7072307396058013,-0.7069812211870504
1676963319.2812524,253,1676963319,280939854,map,0.017119795083999634,9.990501403808594,10.002857208251953,-0.001352707383496359,0.0005757402740019477,-0.7072164813763409,-0.7069956480039049
1676963319.3167937,254,1676963319,316601583,map,0.017471574246883392,9.990262031555176,10.002747535705566,-0.0013128435441585142,0.00046028556795143334,-0.7071683044055513,-0.7070439092683913
1676963319.3487337,255,1676963319,348529071,map,0.017773794010281563,9.990104675292969,10.002669334411621,-0.0013195100725308868,0.0005112879467792345,-0.7071909360027064,-0.7070213619649334
1676963319.3806345,256,1676963319,380484478,map,0.018029071390628815,9.989960670471191,10.00259017944336,-0.0012657984415972447,0.0005489337258961301,-0.7072559337899974,-0.7069563641776424
1676963319.4174469,257,1676963319,416889165,map,0.018220851197838783,9.989866256713867,10.002500534057617,-0.0012658059737000549,0.000463264699828452,-0.7072247075336136,-0.7069876747277232
1676963319.4530098,258,1676963319,452575338,map,0.018374891951680183,9.989798545837402,10.002546310424805,-0.0012776133062968992,0.0005908154279244977,-0.707233984851398,-0.7069782288225447
1676963319.4846952,259,1676963319,484494232,map,0.018497418612241745,9.989726066589355,10.002618789672852,-0.0012654391232500765,0.0007016853471104365,-0.7072325712444527,-0.706979558135793
1676963319.5206404,260,1676963319,520448408,map,0.01860603503882885,9.98962688446045,10.002685546875,-0.0011964782768486184,0.000724856441418967,-0.7072161999308818,-0.706996098036758
1676963319.5544004,261,1676963319,553769476,map,0.01870417594909668,9.98953628540039,10.002718925476074,-0.0012608394779750395,0.0007783597253338962,-0.7071931295424342,-0.7070189155441144
1676963319.58526,262,1676963319,585017273,map,0.01881742663681507,9.989458084106445,10.002785682678223,-0.0012638900207721424,0.0007796516250224313,-0.7071948723084462,-0.7070170884844055
1676963319.6211782,263,1676963319,620707740,map,0.01891728863120079,9.989396095275879,10.002890586853027,-0.0012403791380770084,0.0007612191494596379,-0.7072274489515027,-0.7069845961350459
1676963319.652744,264,1676963319,652525684,map,0.01903584785759449,9.98933219909668,10.002994537353516,-0.001238770457900618,0.0007054605358205108,-0.7072255541440273,-0.7069866595299154
1676963319.6847389,265,1676963319,684531478,map,0.01913447305560112,9.989283561706543,10.003074645996094,-0.0012432170533160968,0.0006769499009027085,-0.7072185711644393,-0.7069936425095034
1676963319.7206697,266,1676963319,720502252,map,0.019253969192504883,9.989192962646484,10.003153800964355,-0.0012783295351878779,0.0006798351078692763,-0.7071180425227224,-0.7070940025638263
1676963319.7529368,267,1676963319,752776637,map,0.019372275099158287,9.98909854888916,10.003240585327148,-0.0013949935553297231,0.0007021773210169313,-0.7071271045813433,-0.7070847719178113
1676963319.7855,268,1676963319,784733832,map,0.019463080912828445,9.989041328430176,10.003327369689941,-0.0013393652306055975,0.0006593491258944657,-0.70710323989947,-0.7071087208933817
1676963319.8205638,269,1676963319,820385385,map,0.019518619403243065,9.98903751373291,10.003397941589355,-0.001346818122859049,0.0007571677013284646,-0.7070573944900764,-0.7071545663027753
1676963319.8567157,270,1676963319,856542798,map,0.019527025520801544,9.989043235778809,10.003375053405762,-0.0013612264181492029,0.0006776938915606021,-0.7071161732589281,-0.7070957875339237
1676963319.8888783,271,1676963319,888713084,map,0.019513942301273346,9.989070892333984,10.00332260131836,-0.001416549610391458,0.0006564339139937532,-0.707084366428034,-0.7071274257774237
1676963319.9247382,272,1676963319,924542021,map,0.019509542733430862,9.98910140991211,10.003256797790527,-0.001391230961283364,0.0007233855822603878,-0.7070005946609764,-0.7072111975444813
1676963319.957708,273,1676963319,957241202,map,0.019502872601151466,9.98912525177002,10.003217697143555,-0.0014810692326310806,0.0007681460704463699,-0.7070025831258285,-0.7072090404922351
1676963319.992751,274,1676963319,992572287,map,0.019484978169202805,9.98914909362793,10.003162384033203,-0.0014912927656862266,0.0006925364763742547,-0.7070643566843533,-0.7071474355211044
1676963320.0287755,275,1676963320,28608032,map,0.01951630786061287,9.989157676696777,10.00310230255127,-0.0015767782224723047,0.0006940167609511046,-0.7070641642761696,-0.7071473750481969
1676963320.0606961,276,1676963320,60484936,map,0.01950858160853386,9.98919677734375,10.003085136413574,-0.0015046516291438786,0.0006177522032067689,-0.7071334523394459,-0.7070783398660118
1676963320.0926905,277,1676963320,92498902,map,0.019477108493447304,9.98926830291748,10.003079414367676,-0.0015661062206072224,0.000576638240597614,-0.7070787057106377,-0.7071330022011229
1676963320.1293423,278,1676963320,128797475,map,0.01946878805756569,9.989354133605957,10.003089904785156,-0.0016130547229209775,0.0006032196899587969,-0.7070441828833445,-0.707167356441022
1676963320.1607041,279,1676963320,160510626,map,0.019473182037472725,9.989404678344727,10.003101348876953,-0.0016285030246253628,0.0006193900857161855,-0.707032856607221,-0.7071785141297514
1676963320.1926126,280,1676963320,192453505,map,0.019504189491271973,9.989420890808105,10.0031156539917,-0.0016094625684250903,0.0007765671671831673,-0.7070336543155602,-0.7071776321277153
1676963320.2299573,281,1676963320,229301593,map,0.019511908292770386,9.989402770996094,10.003159523010254,-0.001522359314737089,0.0007005828612860098,-0.70708841607803,-0.7071232075400337
1676963320.2647147,282,1676963320,264496586,map,0.019490839913487434,9.989396095275879,10.003263473510742,-0.0015195909582616568,0.0007313408410758508,-0.7070709545697504,-0.7071406690483132
1676963320.3016248,283,1676963320,301269495,map,0.01943843439221382,9.989405632019043,10.003361701965332,-0.0015602102304682214,0.0006662074141957564,-0.7070736587387159,-0.7071379648793478
1676963320.349862,284,1676963320,349645936,map,0.019270220771431923,9.989400863647461,10.003464698791504,-0.0016472123564152154,0.0006476188430050552,-0.7070334051284922,-0.7071779656084802
1676963320.3809175,285,1676963320,380720893,map,0.019082948565483093,9.989416122436523,10.003479957580566,-0.0016877192233060738,0.0006697125584985262,-0.7070317829224291,-0.7071795035208465
1676963320.4128451,286,1676963320,412667069,map,0.018910223618149757,9.989439964294434,10.003484725952148,-0.0017171284627845343,0.0006023723078131501,-0.707082990929207,-0.7071282955140685
1676963320.457355,287,1676963320,456994778,map,0.01875634305179119,9.989425659179688,10.003491401672363,-0.0017415873408784253,0.0004096623872831352,-0.7070807508900631,-0.7071306198469094
1676963320.4928076,288,1676963320,492576130,map,0.018587063997983932,9.989412307739258,10.003445625305176,-0.001737734114644155,0.0005001156980422761,-0.7070815970503,-0.7071296050992784
1676963320.5288408,289,1676963320,528594388,map,0.018467498943209648,9.989385604858398,10.003402709960938,-0.0017582395031024351,0.0003614674248518961,-0.707109902419017,-0.7071014683179555
1676963320.5649927,290,1676963320,564722397,map,0.0183365810662508,9.989337921142578,10.003366470336914,-0.001665547264493248,0.000294067493570484,-0.7071695081065797,-0.7070421155114839
1676963320.5974119,291,1676963320,597008858,map,0.018282677978277206,9.989267349243164,10.003366470336914,-0.001738956990636447,0.0003229741812712903,-0.7071752360546819,-0.7070362189759877
1676963320.6297097,292,1676963320,629309618,map,0.01828416809439659,9.98923110961914,10.003381729125977,-0.0017034336181507162,0.0002673413290536721,-0.7072285022317046,-0.7069830370926619
1676963320.673277,293,1676963320,672932523,map,0.018281301483511925,9.989246368408203,10.003403663635254,-0.001611341395906365,0.0002546085767869848,-0.7072187480350886,-0.706992959876672
1676963320.7048287,294,1676963320,704653491,map,0.018306855112314224,9.989270210266113,10.00346851348877,-0.0016997882450267778,0.0003280405288073283,-0.7072010829285137,-0.7070103721021559
1676963320.7368145,295,1676963320,736602531,map,0.01837213896214962,9.989272117614746,10.00356674194336,-0.0016667185682187587,0.00030774636849998353,-0.7071884638780722,-0.7070231597399914
1676963320.772744,296,1676963320,772566731,map,0.01845530793070793,9.989295959472656,10.0037260055542,-0.001719691353373476,0.0002294851449664758,-0.7071891728732633,-0.7070223664511032
1676963320.8049908,297,1676963320,804669199,map,0.018581943586468697,9.989347457885742,10.0038480758667,-0.0016891177660458704,0.0002639983101769612,-0.7071893661663662,-0.7070221731580003
1676963320.84065,298,1676963320,840509994,map,0.018731940537691116,9.989433288574219,10.003995895385742,-0.0017082788593681991,0.0003042800783231848,-0.7071615981947275,-0.707049941129639
1676963320.8807595,299,1676963320,880558386,map,0.0188432689756155,9.989551544189453,10.004135131835938,-0.001703240911564068,0.0003155878637516924,-0.7070937442458842,-0.7071177950784823
1676963320.9128883,300,1676963320,912646285,map,0.01895713247358799,9.98974323272705,10.004325866699219,-0.0017031493738774582,0.0003899992772505648,-0.7070707250026784,-0.7071408143216881
1676963320.9448557,301,1676963320,944629159,map,0.01905043050646782,9.989968299865723,10.004508018493652,-0.0016482169660621431,0.0004662444902499787,-0.7070022911848163,-0.7072092481395502
1676963320.9810731,302,1676963320,980656301,map,0.01919587515294552,9.990316390991211,10.004738807678223,-0.0016901111804361623,0.0005902040516668993,-0.7069825419597996,-0.7072288287771729
1676963321.0167882,303,1676963321,16559481,map,0.019335350021719933,9.990642547607422,10.00498104095459,-0.0016158727995067624,0.0005910776109567384,-0.7069871855526307,-0.7072243537717358
1676963321.0538433,304,1676963321,53176054,map,0.019433192908763885,9.990983009338379,10.00520133972168,-0.0016332690758657608,0.0007131730798257505,-0.7069428358933202,-0.7072685348436523
1676963321.088687,305,1676963321,88516464,map,0.01950082741677761,9.991353988647461,10.005425453186035,-0.0016108124200303279,0.0009595849177579148,-0.7070063934231926,-0.7072046401389918
1676963321.1212902,306,1676963321,121002111,map,0.01956525631248951,9.991775512695312,10.005645751953125,-0.0016463107266657235,0.0009058057448531727,-0.7069808066435723,-0.7072303112123092
1676963321.1567664,307,1676963321,156576542,map,0.01960260421037674,9.99221134185791,10.005825996398926,-0.0015987411139833617,0.0010280659939057915,-0.7069336932993364,-0.707277255969151
1676963321.192656,308,1676963321,192492020,map,0.019717993214726448,9.99277400970459,10.006000518798828,-0.0015715852285955753,0.0011016262180485806,-0.7069817725534395,-0.7072292610087448
1676963321.2246454,309,1676963321,224470163,map,0.01979023590683937,9.993260383605957,10.006126403808594,-0.001616813303961741,0.001225431865266276,-0.7070286828807514,-0.7071820135066449
1676963321.2566366,310,1676963321,256481997,map,0.019794803112745285,9.993731498718262,10.006239891052246,-0.0015969439871801087,0.0012197549234942429,-0.707131523825296,-0.7070791725621003
1676963321.2925584,311,1676963321,292406589,map,0.01981615088880062,9.99426555633545,10.006375312805176,-0.0016627835384088875,0.0011823858977068268,-0.7071257950282889,-0.7070849013591074
1676963321.3247414,312,1676963321,324515468,map,0.019810447469353676,9.9948148727417,10.006523132324219,-0.0016443434895842524,0.001150538829357394,-0.7071331636937287,-0.7070776169873647
